{"type": "FeatureCollection", "features": [{"geometry": {"type": "Point", "coordinates": [-75.6282, 6.2226]}, "type": "Feature", "properties": {"Nombre": "Casa de Gobierno Altavista", "Ciudad": "Medellin", "Codigo": "1", "jsondata": "/media/nicolas/Home/Jupyter/Soraya/git/Alarmas/04_web_hidrologia/hidrologia/results/02_operacionales/pluvio.json"}}, {"geometry": {"type": "Point", "coordinates": [-75.69396768, 6.234819777]}, "type": "Feature", "properties": {"Nombre": "Escuela Rural Yarumalito", "Ciudad": "Medellin", "Codigo": "3", "jsondata": "/media/nicolas/Home/Jupyter/Soraya/git/Alarmas/04_web_hidrologia/hidrologia/results/02_operacionales/pluvio.json"}}, {"geometry": {"type": "Point", "coordinates": [-75.63623913, 6.219590339]}, "type": "Feature", "properties": {"Nombre": "Escuela CEDEPRO", "Ciudad": "Medellin", "Codigo": "8", "jsondata": "/media/nicolas/Home/Jupyter/Soraya/git/Alarmas/04_web_hidrologia/hidrologia/results/02_operacionales/pluvio.json"}}, {"geometry": {"type": "Point", "coordinates": [-75.61199136, 6.236953645]}, "type": "Feature", "properties": {"Nombre": "Instituto Pedro Justo Berrio", "Ciudad": "Medellin", "Codigo": "9", "jsondata": "/media/nicolas/Home/Jupyter/Soraya/git/Alarmas/04_web_hidrologia/hidrologia/results/02_operacionales/pluvio.json"}}, {"geometry": {"type": "Point", "coordinates": [-75.6005, 6.258]}, "type": "Feature", "properties": {"Nombre": "I.E Concejo de Medellin", "Ciudad": "Medellin", "Codigo": "12", "jsondata": "/media/nicolas/Home/Jupyter/Soraya/git/Alarmas/04_web_hidrologia/hidrologia/results/02_operacionales/pluvio.json"}}, {"geometry": {"type": "Point", "coordinates": [-75.58468937, 6.306543998]}, "type": "Feature", "properties": {"Nombre": "Escuela El Triunfo ", "Ciudad": "Medellin", "Codigo": "14", "jsondata": "/media/nicolas/Home/Jupyter/Soraya/git/Alarmas/04_web_hidrologia/hidrologia/results/02_operacionales/pluvio.json"}}, {"geometry": {"type": "Point", "coordinates": [-75.67102544, 6.211125487]}, "type": "Feature", "properties": {"Nombre": "Escuela El Salado", "Ciudad": "Medellin", "Codigo": "18", "jsondata": "/media/nicolas/Home/Jupyter/Soraya/git/Alarmas/04_web_hidrologia/hidrologia/results/02_operacionales/pluvio.json"}}, {"geometry": {"type": "Point", "coordinates": [-75.6437739, 6.232313518]}, "type": "Feature", "properties": {"Nombre": "Escuela Marina Orth", "Ciudad": "Medellin", "Codigo": "29", "jsondata": "/media/nicolas/Home/Jupyter/Soraya/git/Alarmas/04_web_hidrologia/hidrologia/results/02_operacionales/pluvio.json"}}, {"geometry": {"type": "Point", "coordinates": [-75.33045, 6.43686666666667]}, "type": "Feature", "properties": {"Nombre": "Salon Social Barbosa", "Ciudad": "Barbosa", "Codigo": "30", "jsondata": "/media/nicolas/Home/Jupyter/Soraya/git/Alarmas/04_web_hidrologia/hidrologia/results/02_operacionales/pluvio.json"}}, {"geometry": {"type": "Point", "coordinates": [-75.637469, 6.094458]}, "type": "Feature", "properties": {"Nombre": "Santa Maria Goretti", "Ciudad": "Caldas", "Codigo": "33", "jsondata": "/media/nicolas/Home/Jupyter/Soraya/git/Alarmas/04_web_hidrologia/hidrologia/results/02_operacionales/pluvio.json"}}, {"geometry": {"type": "Point", "coordinates": [-75.68567, 6.20558]}, "type": "Feature", "properties": {"Nombre": "Escuela Rural Quebrada Larga", "Ciudad": "Medellin", "Codigo": "43", "jsondata": "/media/nicolas/Home/Jupyter/Soraya/git/Alarmas/04_web_hidrologia/hidrologia/results/02_operacionales/pluvio.json"}}, {"geometry": {"type": "Point", "coordinates": [-75.59467, 6.30446]}, "type": "Feature", "properties": {"Nombre": "Escuela Rural Santa Angela", "Ciudad": "Medellin", "Codigo": "48", "jsondata": "/media/nicolas/Home/Jupyter/Soraya/git/Alarmas/04_web_hidrologia/hidrologia/results/02_operacionales/pluvio.json"}}, {"geometry": {"type": "Point", "coordinates": [-75.6430555555555, 6.11986111111111]}, "type": "Feature", "properties": {"Nombre": "Planta de Agua Bocatoma", "Ciudad": "La Estrella", "Codigo": "61", "jsondata": "/media/nicolas/Home/Jupyter/Soraya/git/Alarmas/04_web_hidrologia/hidrologia/results/02_operacionales/pluvio.json"}}, {"geometry": {"type": "Point", "coordinates": [-75.56784, 6.31141]}, "type": "Feature", "properties": {"Nombre": "I.E Pedro Nel", "Ciudad": "Medellin", "Codigo": "89", "jsondata": "/media/nicolas/Home/Jupyter/Soraya/git/Alarmas/04_web_hidrologia/hidrologia/results/02_operacionales/pluvio.json"}}, {"geometry": {"type": "Point", "coordinates": [-75.32722, 6.43498]}, "type": "Feature", "properties": {"Nombre": "I.E Manuel Jose Caicedo - Pluviometro", "Ciudad": "Barbosa", "Codigo": "234", "jsondata": "/media/nicolas/Home/Jupyter/Soraya/git/Alarmas/04_web_hidrologia/hidrologia/results/02_operacionales/pluvio.json"}}, {"geometry": {"type": "Point", "coordinates": [-75.63536, 6.09628]}, "type": "Feature", "properties": {"Nombre": "Parque 3 Aguas - Pluvio", "Ciudad": "Caldas", "Codigo": "253", "jsondata": "/media/nicolas/Home/Jupyter/Soraya/git/Alarmas/04_web_hidrologia/hidrologia/results/02_operacionales/pluvio.json"}}, {"geometry": {"type": "Point", "coordinates": [-75.6481, 6.1138]}, "type": "Feature", "properties": {"Nombre": "Deslizamiento La raya - Pluviografica", "Ciudad": "La Estrella", "Codigo": "261", "jsondata": "/media/nicolas/Home/Jupyter/Soraya/git/Alarmas/04_web_hidrologia/hidrologia/results/02_operacionales/pluvio.json"}}, {"geometry": {"type": "Point", "coordinates": [-75.63836, 6.13166]}, "type": "Feature", "properties": {"Nombre": "Colegio Canadience - Pluviografica", "Ciudad": "La Estrella", "Codigo": "267", "jsondata": "/media/nicolas/Home/Jupyter/Soraya/git/Alarmas/04_web_hidrologia/hidrologia/results/02_operacionales/pluvio.json"}}]}