{"type": "FeatureCollection", "features": [{"geometry": {"type": "Point", "coordinates": [-75.661333, 6.1953667]}, "type": "Feature", "properties": {"Nombre": "Colegio Campestre el Encanto", "Ciudad": "Medellin", "Codigo": "90", "jsondata": "/media/nicolas/Home/Jupyter/Soraya/git/Alarmas/04_web_hidrologia/hidrologia/results/02_operacionales/nivel.json"}}, {"geometry": {"type": "Point", "coordinates": [-75.63526, 6.09602]}, "type": "Feature", "properties": {"Nombre": "3 Aguas - Nivel", "Ciudad": "Caldas", "Codigo": "106", "jsondata": "/media/nicolas/Home/Jupyter/Soraya/git/Alarmas/04_web_hidrologia/hidrologia/results/02_operacionales/nivel.json"}}, {"geometry": {"type": "Point", "coordinates": [-75.651535, 6.190568]}, "type": "Feature", "properties": {"Nombre": "Santa Rita - San Antonio de Prado", "Ciudad": "Medellin", "Codigo": "108", "jsondata": "/media/nicolas/Home/Jupyter/Soraya/git/Alarmas/04_web_hidrologia/hidrologia/results/02_operacionales/nivel.json"}}, {"geometry": {"type": "Point", "coordinates": [-75.633048, 6.088251]}, "type": "Feature", "properties": {"Nombre": "Caldas-Unidad Deportiva", "Ciudad": "Caldas", "Codigo": "124", "jsondata": "/media/nicolas/Home/Jupyter/Soraya/git/Alarmas/04_web_hidrologia/hidrologia/results/02_operacionales/nivel.json"}}, {"geometry": {"type": "Point", "coordinates": [-75.639668, 6.231477]}, "type": "Feature", "properties": {"Nombre": "Q. Picacha - Aguas Frias", "Ciudad": "Medellin", "Codigo": "173", "jsondata": "/media/nicolas/Home/Jupyter/Soraya/git/Alarmas/04_web_hidrologia/hidrologia/results/02_operacionales/nivel.json"}}, {"geometry": {"type": "Point", "coordinates": [-75.639668, 6.231477]}, "type": "Feature", "properties": {"Nombre": "Q. Picacha - Aguas Frias", "Ciudad": "Medellin", "Codigo": "173", "jsondata": "/media/nicolas/Home/Jupyter/Soraya/git/Alarmas/04_web_hidrologia/hidrologia/results/02_operacionales/nivel.json"}}, {"geometry": {"type": "Point", "coordinates": [-75.633503, 6.136677]}, "type": "Feature", "properties": {"Nombre": "La Inmaculada - Nivel", "Ciudad": "La Estrella", "Codigo": "179", "jsondata": "/media/nicolas/Home/Jupyter/Soraya/git/Alarmas/04_web_hidrologia/hidrologia/results/02_operacionales/nivel.json"}}, {"geometry": {"type": "Point", "coordinates": [-75.32771, 6.432915]}, "type": "Feature", "properties": {"Nombre": "Q. La Gallinaza", "Ciudad": "Barbosa", "Codigo": "186", "jsondata": "/media/nicolas/Home/Jupyter/Soraya/git/Alarmas/04_web_hidrologia/hidrologia/results/02_operacionales/nivel.json"}}, {"geometry": {"type": "Point", "coordinates": [-75.6409, 6.11194]}, "type": "Feature", "properties": {"Nombre": "Q. La Raya - Nivel", "Ciudad": "La Estrella", "Codigo": "246", "jsondata": "/media/nicolas/Home/Jupyter/Soraya/git/Alarmas/04_web_hidrologia/hidrologia/results/02_operacionales/nivel.json"}}, {"geometry": {"type": "Point", "coordinates": [-75.324997, 6.429716]}, "type": "Feature", "properties": {"Nombre": "Q.  la Lopez - Nivel", "Ciudad": "Barbosa", "Codigo": "251", "jsondata": "/media/nicolas/Home/Jupyter/Soraya/git/Alarmas/04_web_hidrologia/hidrologia/results/02_operacionales/nivel.json"}}, {"geometry": {"type": "Point", "coordinates": [-75.62651, 6.09259]}, "type": "Feature", "properties": {"Nombre": "Andalucia Caldas - Nivel", "Ciudad": "Caldas", "Codigo": "259", "jsondata": "/media/nicolas/Home/Jupyter/Soraya/git/Alarmas/04_web_hidrologia/hidrologia/results/02_operacionales/nivel.json"}}, {"geometry": {"type": "Point", "coordinates": [-75.58002, 6.31582]}, "type": "Feature", "properties": {"Nombre": "Q. La loca El cafetal - Nivel", "Ciudad": "Medellin", "Codigo": "265", "jsondata": "/media/nicolas/Home/Jupyter/Soraya/git/Alarmas/04_web_hidrologia/hidrologia/results/02_operacionales/nivel.json"}}]}